INC_CRC|NAME|LATITUDE|LONGITUDE|DESCRIPTION|HYPERLINK
BC5EA394BD8CE9F8|Jalan Pelatok Open Space|1.34617500824454|103.96085701087|Jalan Pelatok|
AB31CCDD36F93C1C|Turnhouse Park|1.38990401870983|103.978978976056|Natheravon Road|
7CAC664DFF94240C|Coney Island Park|1.4099130157165|103.923130995416|Beside Punggol Promenade Nature Walk|www.nparks.gov.sg/gardens-parks-and-nature/parks-and-nature-reserves/coney-island-park
8FC92F17CF75A88A|Stratton Walk Playground|1.37923700487091|103.866966992109|Located at the end of Stratton Walk|
EB7459375A3D10F7|Leban Park|1.37276100286023|103.829073008381|Behind Sembawang Hills Food Centre.  Upper Thomson Road behind ESSO.|
3120B9A286F21587|Kew Drive Playground|1.3207100152588|103.951753989584|At the roundabout of Kew Drive|
20880D0B4E75011A|Harvey Crescent Playground|1.34065899009129|103.955191986755|Harvey Crescent|
2C20594469A955C4|Poh Huat Road Playground|1.36693701735687|103.881610986055|Bounded by Poh Huat Road and Poh Huat Crescent|
0E6DB6A242F9EEF2|Lentor Street Playground|1.39009800189331|103.834277001944|Near Lentor Crescent and Lentor Street|
E6F53FED0B894E21|Lilac Drive Playground|1.38109901056076|103.861150995157|Located at the end of Lilac Drive|
19AFA344C16505F9|Mei Hwan Drive Playground|1.35335001597094|103.863473007606|Bounded by Lorong Chuan and Ang Mo Kio Ave 1|
772D072B4A23E587|Chuan Green Playground|1.36048001138245|103.866008002092|Along Chuan Drive|
0ED8A5B4660D3DC6|Begonia Road Playground|1.3878569764647|103.863388004105|Begonia Road near provision shop|
086DCD09121859AE|Fudu Walk Playground|1.38983500975178|103.837233991568|Junction of Lentor Road and Fudu Walk|
6946A424EC57BD58|Countryside Playground|1.39006498690252|103.838591002804|Junction of Lentor Loop and Countryside Link and Countryside Road|
A058CCE975E44EBF|Jalan Pari Burong Playground|1.3338490080587|103.946937998833|Jalan Pari Burong|
5788E506D0FDAB82|St. Nicholas View Playground|1.37162600142277|103.832785007318|Junction of Ang Mo Kio Ave 2 and Ang Mo Kio Street 11|
EF909169B81E9DEB|Waringin Park Playground|1.32302300071578|103.919178991455|Along Waringin Park|
6F29197BDF70B653|Tai Keng Place Playground|1.345032012357|103.884842001596|A small playground at the end of Tai keng Place (Road)|
D4893F4D6A7A6DC4|Parry Road Playground|1.36602898427679|103.877503995194|Bounded by Parry Road, Parry Terrace and Chuan Hoe Avenue|
B702F418F69DC068|Garden View Playground|1.36042501254669|103.865669002678|Along Conway Grove|
75456CBD2D8FA780|Jalan Naung Playground|1.36956298336645|103.892821980736|Along Jalan Naung|
F0619964ED0B58C6|Lentor Walk Playground|1.38863100316938|103.838382992442|Junction of Lentor Loop and Lentor Walk|
24CB69EEF1E5A3E7|Mariam Way Playground|1.36195200532663|103.966204991398|Mariam Way|
F66150300D02C36F|Mariam Walk Playground|1.35954702875823|103.968546996712|Mariam Walk|
B301234EA6A5BBF3|Thomson Green Playground|1.37869201086068|103.832622992872|Thomson Green road, behind shop houses|
88D9CB89C5ED2C1F|Surin Avenue Neighbourhood Park|1.35555801355152|103.884109015017|Bounded by Surin Ave and Aroozoo Ave|
799AC8121D7A57AE|Chiltern Drive Interim Park|1.3485589866523|103.862005994263|Located along Chiltern Drive (Road) within Braddel Height Estate and beside St. Gabriel Secondary School|
B3743948D125A5E7|Kew Crescent Playground|1.31918799226855|103.948585989819|Along Kew Crescent|
EF3BCEF9A11F2BE9|Lentor Green Playground|1.38528598872966|103.837056005834|Near Lentor Loop and within Lentor Green|
AE9C00E81015C0B6|Nim Crescent Open Space|1.38307998862516|103.86684100749|Located along Nim Crescent|
DB02F9F1D0A2C0AB|Colchester Grove Open Space|1.3575850011328|103.867454004249|Along Colchester Grove|
CF26A22674D2BC36|Tavistock Avenue Park|1.37020698685564|103.865358006982|Junction of Ang Mo Kio Ave 3 and Tavistock Ave|
055A39B259377CFB|Elite Terrace Park|1.31559901614235|103.924306015806|Bounded by Elite Park Avenue and Elite Terrace|
AA6469B3C9CF05CF|Jalan Selaseh Playground|1.38560200214797|103.873382001962|Bounded by Jalan Selaseh, Seletar Hills Drive & Jalan Keruing|
1852078C6668522B|Jalan Geneng Interim Park|1.35333801951661|103.880875016585|Along Jalan Geneng|
5F26F987DF1B33E6|Kampong Glam Park|1.30244501399783|103.862996003651|Along beach road|
1A59DE3A345F4205|Clover Way Playground|1.35013800008884|103.845964994247|Junction of Clover Way and Binchang Rise|
4DBD588CA9153C17|Marine Parade Road Park|1.30489699274238|103.908132009336|A linear park along Marine Parade Road between Still Road South (Road) and East Coast Road. It flanked itself at terminal roads of private houses with one courtyard in front of Grand Mercue Roxy Hotel.|
4FF401FD8E317547|Butterfly Avenue Playground|1.3344340005684|103.877337012157|Butterfly Avenue, Sennett Estate|
BF55993565B41D6E|Marymount Terrace Playground|1.34895300431616|103.840364994858|End of Marymount Terrace|
53DA086B747F82E2|Carmichael Road Playground|1.34262199857387|103.863114996244|Carmichael Road|
3DC1E90FB5DDF7DD|Greenridge Crescent Playground|1.3342800030382|103.765763004383|Located along Greenridge Crescent|
1C301C15FB8F9285|Fulton Avenue Playground|1.36211900551873|103.833535006924|Along Fulton Ave|
E439DF16FD095FF9|Savoy Park Playground|1.33343799865579|103.769988997386|Located at the end of Eng Kong Drive|
9B2E40862E5853BF|Eng Kong Place Fitness Corner|1.33473900830612|103.767246997122|Located along Eng Kong Place|
46F986B3C0659F1F|Pandan Reservoir Fitness Corner|1.31755100565495|103.74869600057|Juntion of West Coast Road & Pandan Gardens|
3BDE3205F96F1B62|Bukit Timah Nature Reserve|1.35319898245639|103.774032955111|End of Hindhede Drive|www.nparks.gov.sg/gardens-parks-and-nature/parks-and-nature-reserves/bukit-timah-nature-reserve
0A0B96D99AE2AD78|one-north Park: Mediapolis|1.29493834487393|103.792829540115|Media Circle, next to MediaCorp campus|www.nparks.gov.sg/gardens-parks-and-nature/parks-and-nature-reserves/one-north-park-mediapolis
49F83FD6C22D5865|Lakeside Grove Fitness Corner|1.33980400972371|103.717160003251|Corporation Rise, along Lakeside PCN.|
3A7423776B643EA3|Westwood Park Playground|1.35177199512194|103.701048000098|Westwood Crescent/Ave.|
9B2F0980DFE85F18|Cashew Road Playground|1.37060000450024|103.764668007983|Junction of Cashew Road and Upper Bukit Timah Road|
CB9D8F2AC6FB3D32|Chu Yen Playground|1.35864000916998|103.759016001687|Junction of Jln Remaja and Chu Yen Street|
C03B764FE9E80701|Hillview Crescent Playground|1.35536100795603|103.761025000317|Hillview Cescent, along Hillview Avenue|
D02DFEA28D368014|Sunset Way Playground|1.32678800198744|103.76640600767|Along Sunset Way|
DB390E826A98D15C|Jurong Lake Gardens|1.33605661779116|103.731160967029|Along Yuan Ching Road and Boon Lay Way|www.nparks.gov.sg/gardens-parks-and-nature/parks-and-nature-reserves/jurong-lake-gardens
FECD599E4B43D4AB|one-north Park: Fusionopolis North|1.30100203775994|103.790634518931|Along Central Exchange Green|www.nparks.gov.sg/gardens-parks-and-nature/parks-and-nature-reserves/one-north-park-fusionopolis-north
6C744303E59213AC|Taman Mas Merah Playground|1.30875099860659|103.764760003254|Taman Mas Merah, West Coast Peak Estate|
76672EABB60FDEBA|Cashew Link Playground|1.37135900584168|103.768924998308|Located along Cashew Link and Cashew Crescent|
A915DD4C9B00E016|Hindhede Nature Park|1.35020400464513|103.776007005438|Along Hindhede Drive|www.nparks.gov.sg/gardens-parks-and-nature/parks-and-nature-reserves/hindhede-nature-park
76825A42FC8AC938|Faber Hill Playground|1.31976699701647|103.757975999596|Along Faber Green|
39625DFC79777B4B|Burgundy Crescent Playground|1.33982701990743|103.760905002133|Burgundy Crescent, within Burgundy Hill Residences|
C767FF100CA63B91|Lorong Kemunchup Playground|1.36042001623966|103.76095898509|Along Lorong Kemunchup|
D2E818169A369EA4|Dairy Farm Nature Park|1.36271299419191|103.773907987741|Along Dairy Farm Road|
A29D55628024A73B|Chestnut Drive Playground|1.36763401414182|103.768829994104|Junction of Chestnut Drive and Chestnut Terrace|
D2E19B02FA1C3F3B|Sunset Way Park|1.32769499983866|103.764779003407|Along Sunset Way, located just outside Clementi Park Condo|
3C808BDDC9DDA21F|Pavilion Park Playground|1.37228598896427|103.751977003043|Pavilion Circle, off Bukit Batok Road|
E7E7429FF42D5F9F|West Coast Green Playground|1.31555999669294|103.756359994439|West Coast Green, West Coast Gardens Estate|
026A96ECFD0DE9D4|Jalan Dermawan Playground|1.36063898092479|103.75860600478|Along Jln Dermawan|
6737176BF81736D6|one-north Park: Rochester East|1.30558122667376|103.789162176587|Along Vista Exchange Green, in front of Rochester Mall|www.nparks.gov.sg/gardens-parks-and-nature/parks-and-nature-reserves/one-north-park-rochester-east
8A8EE7F0A86B2251|Jurong Central Park|1.33801700926634|103.707875996198|Junction off Jalan Boon Lay & Boon Lay Way|www.nparks.gov.sg/gardens-parks-and-nature/parks-and-nature-reserves/jurong-central-park
8C43839BF220936F|Faber Height Open Space|1.32250399598282|103.757667999449|Along Faber Walk|
D7D8AEC6567902E5|West Coast Place Playground|1.31425397832238|103.758450004373|West Coast Place, West Coast Gardens Estate|
0875BCBCF3532C19|Westville Playground|1.35423700663436|103.698636002705|Westwood Crescent, along Jalan Bahar|
825841DB4B9E80ED|Villa Verde Park|1.38954898021615|103.751410997398|Junction of Choa Chu Kang North 5 and Stagmont Ring Rd|
687BC328F41D4BB4|Bukit Batok Nature Park|1.34754399774384|103.765471994671|Along Bukit Batok East Avenue 2 and Bukit Batok East Avenue 6|
66CC564969878943|Chestnut Close Playground|1.36927001062503|103.773357003454|Located at end of Chestnut Close|
750596296F1D4DC4|Upper Seletar Reservoir Park|1.39974901320673|103.805723997797|Along Mandai Road Track 7, off Mandai Road|www.nparks.gov.sg/gardens-parks-and-nature/parks-and-nature-reserves/upper-seletar-reservoir-park
2733F67AEA96B1A9|Thong Soon Green Playground|1.40003198984827|103.8184459979|Beside petrol kiosk|
CB24BE507115244E|Springleaf Avenue Playground|1.40087098567589|103.822383993324|Springleaf avenue|
5DEB8A91BCAA7962|The Southern Ridges|1.27987700300301|103.80483399736|Southern Singapore|www.nparks.gov.sg/gardens-parks-and-nature/parks-and-nature-reserves/the-southern-ridges
E7396C4A8BD86249|Tiong Bahru Park|1.28761700771254|103.824027002227|Along Tiong Bahru Road and Lower Delta Road|www.nparks.gov.sg/gardens-parks-and-nature/parks-and-nature-reserves/tiong-bahru-park
DB6AC9C66DF7E39E|Clementi Woods Park|1.29893400799437|103.767616991901|Along West Coast Road next to West Coast Plaza|www.nparks.gov.sg/gardens-parks-and-nature/parks-and-nature-reserves/clementi-woods-park
E251D11ADDEF4483|Jalan Mas Puteh Playground|1.30899499439468|103.762026993326|Jalan Mas Puteh, West Coast Peak Estate|
857734FB60B3361E|West Coast Park|1.29615329873174|103.762999956965|Parallel to West Coast Highway|
EA18912EEAD8317A|one-north Park: Fusionopolis South|1.29961302753491|103.790721343478|Along Central Exchange Green|www.nparks.gov.sg/gardens-parks-and-nature/parks-and-nature-reserves/one-north-park-fusionopolis-south
6B361A762DD3F663|Cashew Crescent Fitness Corner Playground|1.37224501547955|103.769495005402|Located along Cashew Road and Cashew Crescent|
27950593DED69D81|Fuyong Interim Park|1.35740900815882|103.768537003146|Located along Jalan Asas|
84998193765E95EA|Choa Chu Kang Park|1.38913899170983|103.748433001808|Along Choa Chu Kang Drive, next to KJE|www.nparks.gov.sg/gardens-parks-and-nature/parks-and-nature-reserves/choa-chu-kang-park
A50FBDC42FFC5543|Hazel Park Open Space|1.37163501891167|103.763644994757|Located along Upper Bukit Timah Road|
52CC5AD24CCC049E|Jalan Mas Kuning Playground|1.30780800245289|103.763605995133|Jalan Mas Kuning, West Coast Peak Estate|
889F376DE6E359DC|Sunset Heights Open Space|1.32794501705898|103.768867997661|Along Sunset Heights|
266324D3F3D2CD6C|Almond Crescent Playground|1.37321500854805|103.771884003432|Junction of Almond Crescent and Almond Street|
52C91CF6F5780AA7|Phoenix Heights Playground|1.37589003353554|103.757240001981|Along Phoenix Rd, off Choa Chu Kang Rd|
342ED74CBE233662|Lakeside Grove Playground|1.34007298363987|103.718593996798|Corporation Rise|
9906605784F7494E|one-north Park: Rochester West|1.30611310021726|103.788029366525|Along Vista Exchange Green, opposite The Star Vista|www.nparks.gov.sg/gardens-parks-and-nature/parks-and-nature-reserves/one-north-park-rochester-west
F1A06128098C43A8|Yunnan Park|1.33748498597278|103.69290199957|Yunnan Crescent.Opp Jurong west sports hall.|
3E22C0281F3E04E2|Bukit Batok Town Park|1.35736098423476|103.756069994032|Along Bukit Batok East Avenue 5|www.nparks.gov.sg/gardens-parks-and-nature/parks-and-nature-reserves/bukit-batok-town-park
6F7E275FDB39B5A5|Jalan Remaja Interim Park|1.35757800094458|103.760775993338|Along Jln Remaja|
8238C86374B86AD2|Parry Avenue Interim Park|1.36407301180073|103.881278002318|Along Parry Ave and Glasgow Road|
021312435E6361A0|Mei Hwan Crescent Playground|1.35276700416957|103.861743001571|Bounded by Mei Hwan Drive and Mei Hwan Crescent|
2758596DB4AEE800|Pebble Garden|1.45063801719106|103.829488991841|Off Sembawang Road|
69376E14E4629E66|Kranji Nature Trail|1.44435098869543|103.73383399198|Off Kranji Way|
0816A6B2F3313B3E|Sembawang Park|1.4615029860945|103.836845008751|At the end of Sembawang|www.nparks.gov.sg/gardens-parks-and-nature/parks-and-nature-reserves/sembawang-park
B69DD8E34A62DB2C|Sengkang Riverside Park|1.39944798848949|103.884325989939|Anchorvale Street abutting Sungei Punggol|www.nparks.gov.sg/gardens-parks-and-nature/parks-and-nature-reserves/sengkang-riverside-park
174F7682F6024278|Brooks Park|1.4055841273393|103.822723028657|Along Springside Ave|
546A6DB1EFE4DB9C|Punggol Waterway Park|1.4109970215842|103.904814998591|Along Sentul Crescent Road (Cuts through the whole of Punggol Town)|www.nparks.gov.sg/gardens-parks-and-nature/parks-and-nature-reserves/punggol-waterway-park
076102BC56072481|Platina Road Playground|1.42754499031824|103.826118993934|Platina estate|
B56D2B1467E9E6C0|Springleaf Nature Park|1.40115897651427|103.817468667699|Nee Soon Road, Upper Thomson Road|www.nparks.gov.sg/gardens-parks-and-nature/parks-and-nature-reserves/springleaf-nature-park
8B757636FB879EBD|Kranji Reservoir Park|1.43880599266327|103.740057006009|Along Kranji Way|www.nparks.gov.sg/gardens-parks-and-nature/parks-and-nature-reserves/kranji-reservoir-park
954DC81886757C48|Kandis Garden|1.45622201251589|103.835674007799|Off Sembawang Road/Kandis Road|
61D4606FCA9F524B|Windsor Nature Park|1.36002980955599|103.826946179093|30 Venus Drive, Singapore 573858 (Located close to Singapore Island Country Club)|
A997071F044A0F3D|Punggol Park|1.37693901170228|103.898646016222|Junction of Hougang Avenue 8 and 10|www.nparks.gov.sg/gardens-parks-and-nature/parks-and-nature-reserves/punggol-park
CB5DC6630AF255AF|Lower Seletar Reservoir Park|1.40997400015505|103.832171003957|Bounded by Yishun Ave 1 and Lentor Avenue|www.nparks.gov.sg/gardens-parks-and-nature/parks-and-nature-reserves/lower-seletar-reservoir-park
54B23DCCBBA064D4|Springleaf Garden Playground|1.39803898385092|103.822322000777|Straight from springleaf estate entrance road.|
4E353F2A56C83E22|Admiralty Park|1.44417042427999|103.782058929229|31 Riverside Road, Singapore 730000|www.nparks.gov.sg/gardens-parks-and-nature/parks-and-nature-reserves/admiralty-park
EECA2F4988DD7F22|Yishun Pond Park|1.42759699434119|103.839486993379|Along Yishun Central, in front of Khoo Teck Puat Hospital|www.nparks.gov.sg/gardens-parks-and-nature/parks-and-nature-reserves/yishun-pond-park
DBC341F53A0B6293|Jalan Rasok Park|1.41651199011886|103.759038994785|Along Jln Rasok|
C6898AE8670B0E68|Goodlink Park Playground|1.42728100396175|103.825350996754|Turn right after Goodlink estate entrance|
1370FC84BCD77908|Yishun Park|1.42437600154029|103.84260999229|Bounded by Yishun Ave 4, Yishun Central, Yishun Ave 11 and Yishun Ring Road|www.nparks.gov.sg/gardens-parks-and-nature/parks-and-nature-reserves/yishun-park
8B9EBA8A4FBE27B0|Lower Peirce Reservoir Park|1.36906501231608|103.826296008364|Along Old Upper Thomson Road|www.nparks.gov.sg/gardens-parks-and-nature/parks-and-nature-reserves/lower-peirce-reservoir-park
3B67C7294C35D913|Punggol Waterway|1.40223299924483|103.9154050167|Along Sentul Crescent Road|
96486E19EF57B312|Marsiling Park|1.43763301771893|103.769933998893|Woodlands Centre Road adjacent to Bukit Timah Expressway|www.nparks.gov.sg/gardens-parks-and-nature/parks-and-nature-reserves/marsiling-park
E415D97687EAFB85|Pulau Ubin and Chek Jawa|1.40868999314912|103.965420009834|Pulau Ubin|www.nparks.gov.sg/gardens-parks-and-nature/parks-and-nature-reserves/pulau-ubin-and-chek-jawa
034656BDAFA8BF68|Kent Ridge Park|1.28435300657627|103.790318992831|Vigilante Drive off South Buona Vista Road|
D5016B28ECC28A3D|Sisters’ Islands Marine Park|1.21405833267371|103.834805553003|Sisters’ Islands|
5DFA1F5042BC1C4D|Telok Blangah Hill Park|1.27884500650228|103.810545004407|Telok Blangah Green off Henderson Road|www.nparks.gov.sg/gardens-parks-and-nature/parks-and-nature-reserves/telok-blangah-hill-park
A5846571A555DFD6|HortPark|1.27863065273452|103.801481185309|33 Hyderabad Road (off Alexandra Road), Singapore 119578|www.nparks.gov.sg/gardens-parks-and-nature/parks-and-nature-reserves/hortpark
06833C82218C53F5|Raffles Place Park|1.28424399735648|103.851334997301|Bounded by Battery Road and Collyer Quay. It can also be accessed from D'Almeida Street.|www.nparks.gov.sg/gardens-parks-and-nature/parks-and-nature-reserves/raffles-place-park
AC8CA17A21868178|Hong Lim Park - Speakers' Corner|1.28663900368187|103.846577998059|The park is bounded by North Canal Road, South Bridge Road, Upper Pickering Street and New Bridge Rd|www.nparks.gov.sg/gardens-parks-and-nature/parks-and-nature-reserves/hong-lim-park
78E6B093FF09F721|Mount Batten Rd/Old Airport Rd Open Space|1.30573400841613|103.88330098901|Junction of Mt Batten Rd & Old Airport Rd|
AA5EC52A19C4E25A|Wilkinson Interim Park|1.30157198694066|103.887303997701|Along Wilkinson Road|
2F1D45EED0C983BA|Bunga Rampai Park|1.34045302254281|103.884275005667|Located along Jalan Bunga Rampai (Road) is a transitional zone among Bartley MRT, Bartley Secondary School and Jalan Bunga Rampai Estate|
B4B92BB1A0D125DA|Handy Road Open Space|1.29897100091601|103.84777500427|Bounded by Handy Road, Orchard Road and Zubir Said Drive; In front of The Cathay ▀|
D56EAEF187A152BD|Kitchener Green Playground|1.30730499713228|103.859533002821|Along Kitchener Road|
8536B482FE51D6CD|Penang Road Open Space|1.30009699401837|103.841238007513|Along Penang Road and Oxley Road ▀|
119021D2C0A30D47|National Orchid Garden|1.31267000887848|103.813893992211|In the Central Core of the Singapore Botanic Gardens., Address: 1 Cluny Road, Singapore 259569|www.nparks.gov.sg/gardens-parks-and-nature/parks-and-nature-reserves/national-orchid-garden
ADB5ACEDD0C508B1|Eng Kong Garden Playground|1.33692401719002|103.769163007842|Located along Lorong Kismis and Eng Kong Terrace|
AABAA7518ACA5AC5|Sennett Avenue Open Space|1.31878498855893|103.939423995901|Sennett Ave|
BA00DDAB0F3E954D|Interim Park At Lengkong Enam|1.32736399042993|103.914736987314|Along Jalan Selamat and Lengkong Tujuh|
171B1A8D0BCD056B|Pesari Walk Playground|1.32442800353246|103.953982005401|Along Taman Bedok|
09DE4312CEE2D693|Changi Heights Playground|1.36284801405719|103.972156990988|Jalan Terang Bulan|
927944CDCCC7E47B|Jalan Senang Playground|1.32899598345262|103.915657988943|Along Jalan Senang|
6FCD6CEF6885DDAA|Telok Kurau Park|1.31536500670409|103.914285987588|A green space along Bedok Reservoir PCN. Entrance along Joo Chiat Place, Joo Chiat Walk, Joo Chiat Ave and Lorong J Telok Kurau (Road)|
622FBEF14C816531|Sunrise Place Playground|1.38694298284096|103.856600000567|Located along Sunrise Place|
6C996D80208497AB|Seletar Terrace Playground|1.38146800285887|103.868719994142|Located along Seletar Terrace|
EC9FDBFD4393F73A|Upper Peirce Reservoir Park|1.37450901296906|103.811353002102|Along Old Upper Thomson Road|www.nparks.gov.sg/gardens-parks-and-nature/parks-and-nature-reserves/upper-peirce-reservoir-park
51DC303FD7651D0F|Tai Hwan Terrace Playground|1.35635900364815|103.860395002318|Bounded by Tai Hwan Grove and Tai Hwan Terrace|
7ED2BECE2F8269E3|Woodlands Town Park East|1.43652399605571|103.779225994086|Along Woodlands street 13|
085E18CF2019E327|Sungei Buloh Wetland Reserve|1.44021109438519|103.735469441118|Visitor Centre:, 60 Kranji Way, #01-00, Singapore 739453, Wetland Centre:, 301 Neo Tiew Crescent, Singapore 718925, Parking lots are available near both entrances.|www.nparks.gov.sg/gardens-parks-and-nature/parks-and-nature-reserves/sungei-buloh-wetland-reserve
09819F1DC27928BB|Tamarind Road Playground|1.38970200824166|103.860192003962|Tamarind Road|
01E36C27ADF1A692|Woodlands Waterfront Park|1.45270000280122|103.780115001631|Admiralty Road West|
F5CF4377C8B5A14D|Ellington Square Playground|1.37200201143139|103.8345300001|Near Ang Mo Kio Ave 2/ Ang Mo Kio Street 11 and Ellington Square|
0CD00CC02BF36ADD|Thrift Drive Open Space|1.34388700495724|103.883247013056|Green open space along Upper Paya Lebar (Road) and along Thrift Drive (Road), facing Jalan Gotong Royong (Road)|
BEF6EFD284E92D21|Cactus Road Playground|1.39010900260341|103.852235996241|Located in Cactus Rd|
C2CF14521E3B39D4|Serenade Walk Playground|1.37992099278184|103.834559997553|Serenade walk road|
B59FA0E862861781|Gelenggang Park|1.3734760171315|103.82985799937|Upper Thomson Road behind ESSO station.  Junction of Jalan Kuras/Jalan Gelenggang|
A9434EB7E9677E3D|Park Villas Terrace Playground|1.36898199651608|103.880038986362|Along Hougang Ave 2 and Park Villas Terrace|
CE4D5D08BBC01CCD|Jalan Kemuning Park|1.43935801058573|103.826964006486|Off Sembawang Road/Jalan Kemuning Road|
122B1D3AFC079CA8|Sunrise Terrace Open Space|1.38825798987759|103.85612099449|Located along Sunrise Terrace|
05830DBD3D09DA63|Sunrise Close Playground|1.38701200648595|103.85751000337|Located at the junction of Sunrise Ave & Sunrise Place|
D257368CC200724B|Thomson Walk Playground|1.37599700541463|103.832498999628|Thomson Walk Road|
7123569049B86143|Mimosa Road Playground|1.38426200171396|103.862974003853|Located at Mimosa Crescent next to Mimosa Park Condo|
48DD42ABD462F168|Chartwell Drive Park|1.35963099707599|103.863871997607|Along Chartwell Drive|
848D9F18FD8CAA80|Springside Park|1.40567198380168|103.820607004324|Can be seen from the main road|
C635184863DD7F95|Florissa Park Playground|1.38695401385743|103.835071996736|Near Lentor Loop and within Florissa Park|
F776651BCCCA71C7|Kranji Marshes|1.4202270044737|103.719891001209|Kranji Gate:, 11 Neo Tiew Lane 2,, Singapore 718814|www.nparks.gov.sg/gardens-parks-and-nature/parks-and-nature-reserves/kranji-marshes
C5BEF6020AC6C9BF|Janggus Garden|1.45754000043802|103.836984004973|Off Sembawang Road/Janggus  Road|
A3861CAF6D92A3C6|Ann Siang Hill Park|1.28043799569511|103.846118991983|Entrance via Ann Siang Road, Ann Siang Hill and Amoy Street|
26B7D581B2162D25|Duxton Plain Park|1.28112199338038|103.841419008008|Entrance via New Bridge Road, Neil Road, Kreta Ayer Road and Yan Kit Road|
9D531CC4CC25FAEE|Yishun Neighbourhood Park|1.43762199315966|103.835077000931|Bound by Yishun Ave 2, Ave 7 and St 22. Yishun St 20 leads straight to the park.|www.nparks.gov.sg/gardens-parks-and-nature/parks-and-nature-reserves/yishun-neighbourhood-park
C32F84850A50B2E9|Tanah Puteh Park|1.31587297458671|103.931431007828|Jalan Tanah Puteh|
B253351D85E65E0A|Jalan Pari Dedap Playground|1.33302098061918|103.943879998136|Jalan Pari Dedap|
9257829B06B65D33|Jalan Limau Kasturi Playground|1.32398300052142|103.946385010592|Junction of Jalan Limau Kasturi and Jalan Limau Nipis|
B1087E9F050C5D64|Dew Garden|1.39926598983919|103.871064999127|Jalan Tari Payong|
5AD78C5AAD9DF46D|Sunrise Way Playground|1.38766198061858|103.8567519929|Located along Sunrise Way|
E320990175BAA58F|Jalan Kelichap Playground|1.34678199384784|103.881825008434|Located along Jalan Kelichap (Road) is a central green space surrounded by residential houses in Tai keng gardens Estate|
B6D8116DB09F97B6|Interim Park at Terang Bulan Avenue|1.32163298613197|103.921576998431|Between New Upper Changi Road and Terang Bulan Ave|
F29F4C63B7397725|Sunbird Circle Playground|1.33903900258699|103.958233998139|Sunbird Circle|
5C59D5B40A6ADC9A|Jalan Pelatok Playground|1.34609499913104|103.96034399401|Jalan Pelatok|
E576647428D29775|Jalan Limau Kasturi Open Space|1.32428400500475|103.946227975324|Junction of Jalan Limau Kasturi and Jalan Limau Nipis|
75B94ABAD360C035|Changi East Boardwalk|1.39179402610172|103.98634401654|Along Changi Village Road near Civil Service Club|
77203A0769DABF8D|Teacher's Estate Playground|1.38199198350515|103.829199999261|Teacher's estate , opposite shop houses|
6D0045A80FDBB63B|East Coast Terrace Park|1.31099600110692|103.923806011504|2 parts of the Park, bounded by East Coast Avenue and Marine Parade Road|
B9A3B07267C422E1|Singapore Botanic Gardens|1.31104799117615|103.8162510018|Located in central Singapore and just five minutes away (by bus) from Orchard Road., Address: 1 Cluny Road, Singapore 259569|
75F7C879647D4FBA|Labrador Nature Reserve|1.26576098729676|103.803132991334|Along Labrador Villa Road|
DB357C60AF775573|Sembawang Hot Spring Park|1.43416900745054|103.822646892476|Along Gambas Avenue|www.nparks.gov.sg/gardens-parks-and-nature/parks-and-nature-reserves/sembawang-hot-spring-park
0FCE10E5E6E256C6|Sennett Avenue Playground|1.31701300192687|103.936211992606|Bounded by Sennett Ave and Sennett Place|
1C026F0B6C8B6B1F|Lucky Gardens Playground|1.31928700190599|103.941376027843|Lucky Gardens|
D24B1FE235BEE9F4|Bedok Town Park|1.33433543386641|103.920870105439|Bedok North Avenue 3. Bounded by Bedok North Road, Bedok North Avenue 3 and the Pan Island Expressway|www.nparks.gov.sg/gardens-parks-and-nature/parks-and-nature-reserves/bedok-town-park
C38D382A967F2E94|Lentor Grove Playground|1.38637898011574|103.838321000262|Near Lentor Road and Lentor Green|
586903718DAAF613|Telok Kurau Lorong N Park|1.31032499244793|103.912805012433|Lorong N Telok Kurau|
BC4B404B91317126|Dedap Place Playground|1.38779799024028|103.868412996645|Dedap Place|
FE592D76E41AC86E|Chuan Walk Playground|1.35722198250143|103.867552999516|Along Chuan Walk|
3F999E73F889E1C3|Bedok Reservoir Park|1.33909400181013|103.926809990659|Along Bedok Reservoir Road|www.nparks.gov.sg/gardens-parks-and-nature/parks-and-nature-reserves/bedok-reservoir-park
6E418CC1927067D6|Jalan Riang Playground|1.34710898656633|103.867396000461|Located along Jalan Riang (Road) is a central green space surrounded by shophouses and residential houses in Braddel Height Estate.|
A7845D36BCDC1CFC|Changi West Boardwalk|1.39004398808481|103.975878001995|Along Andover and Cranwell Road|
A67AD95D8F7A42BC|Cheng Soon Garden Playground|1.33588600793432|103.771683001973|Located along Kismis Road and Toh Yi Drive|
1F38F9A714071F75|Jalan Tekukor Playground|1.34613801947644|103.766776000112|Jalan Selanting, along Jalan Jurong Kechil|
D4098D99D8A898F9|Namly Park|1.32329899251823|103.796581000747|Located along Namly Place|
3239DA75EB85361C|Novena Rise Park|1.3248380105169|103.842727999825|Along Novena Rise|
3EB910FEC676D119|Hooper Road Playground|1.31239900279065|103.843203991187|Along Hooper Road and Makepeace Road/Jalan Aruan|
4FD06B73056FE731|Chwee Chian Playground|1.27920699805128|103.788954002616|Chwee Chian Road, Springwood Estate|
796C29E57BAEE0E3|Esplanade Park|1.28941700056052|103.853597006001|Along Connaught Drive, opposite Padang and City Hall|www.nparks.gov.sg/gardens-parks-and-nature/parks-and-nature-reserves/esplanade-park
ED24812599665100|Bishan-Ang Mo Kio Park|1.3614559889116|103.847295002494|Along Bishan Road and Ang Mo Kio Ave 1|
FE5148DF1325C119|Arthur Park|1.30338100339795|103.88821399352|Along Arthur Road|
9E56510CDF41EAFD|one-north Park: Biopolis|1.30427800508224|103.790368006179|North Buona Vista Road, opposite Ministry of Education|www.nparks.gov.sg/gardens-parks-and-nature/parks-and-nature-reserves/one-north-park-biopolis
872C841CC5199FAA|Katong Park|1.29717500161512|103.88636699295|Junction of Meyer Road & Fort Road|
FE035938BE2DF0F3|Meyer Road Playground|1.29856899320857|103.894196994238|Junction of Meyer Road & Crescent Rd|
F22245ECFDC85E78|Thomson Road Playground|1.31615298537997|103.843851998491|Along Licoln Road|
70AD9F934D3DC44D|Jacob Ballas Children's Garden|1.32069549289459|103.81791820006|In the Bukit Timah Core of the Singapore Botanic Gardens, Address: 481, Bukit Timah Road, Singapore 259769|www.nparks.gov.sg/gardens-parks-and-nature/parks-and-nature-reserves/jacob-ballas-childrens-garden
B8558938C839E971|Jupiter Road Playground|1.35827000334118|103.825161003409|Along Jupiter road playground|
6433E1F4C5E4ACB5|Gentle Drive Playground|1.32036100553335|103.840698992687|At the end of Gentle Drive|
E4B5AF291E6150FE|Goldhill Avenue Playground|1.32113298217552|103.833174001996|Junction of Goldhill Place and Goldhil Avenue|
0D115E6FDFCD277D|Pasir Panjang Park|1.27569899889613|103.792076002745|Off Pasir Panjang Road, beside Pasir Panjang Food Centre|
8E53310885968D73|Lorong 40 Geylang Playground|1.31365001641553|103.889368987508|Along Lor 40 Geylang|
611FE49DC6D16BDF|Telok Ayer Park|1.27817799839718|103.84668700735|Bounded by Maxwell Road, Cecil Street and Telok Ayer Street|
AEDED76F676EB90A|Aljunied Park|1.3291380155208|103.879963007648|Along Aljunied Road within Happy Garden Estate|
3420DA28EF5B5655|Jambol Place Park|1.27902600515874|103.790185001957|Jambol Place, Springwood Estate|
4263D837CC5538E9|Pearl's Hill City Park|1.28238099129417|103.839540995736|Along Chin Swee Road and Pearl's Hill Road|www.nparks.gov.sg/gardens-parks-and-nature/parks-and-nature-reserves/pearls-hill-city-park
AC7AA1819698A319|Oasis@Mulberry Park|1.33232501027716|103.878435998931|Junction of Upper Aljunied Road & Mulberry Avenue, Sennett Estate|
50CB7B0AD7A8537E|Haig Walk|1.30651900009923|103.900740008896|Adjacent to Seraya Lane and Mugliston Road|
EE93BB5C3B7D382C|Jalan Pintau Playground|1.35403599295373|103.839945000658|along Jalan Pintau|
257CCFABE97D31F2|Joo Chiat Terrace Interim Park|1.3144079987312|103.901698999963|Along Joo Chiat Terrace|
179F0FF2BDAE0A76|Orchid Village Playground|1.33570401108734|103.801713002995|Along Liden Dr|
ADC0488E38A1F9B4|Clementi Crescent Playground|1.3231039894972|103.773259992457|Within Clementi Crescent Estate|
F6C50CD9F00C7DFC|Pemimpin Place Playground|1.35337000437201|103.842720000709|Along Pemimpin Place|
462A8A66480A45CC|Soo Chow Walk Playground|1.35364696671371|103.832027997859|along Soo chow walk|
A888D0B2ADED9910|Highgate Walk Playground|1.34051598711497|103.765983998843|Along Highgate walk|
D3DEEB0BBA176DD7|Island Gardens Walk Playground|1.36199899589951|103.828438998161|Along Island Garden Walk|
D89B4580EEF9CB19|MacRitchie Reservoir Park|1.34152298935114|103.833590006976|Along Lornie Road|www.nparks.gov.sg/gardens-parks-and-nature/parks-and-nature-reserves/macritchie-reservoir-park
00E1DB2943D1749C|Marina Promenade|1.29057200094772|103.864678999149|Along Republic Boulevard and Republic Avenue|
92EF3F1DFACC5D11|Ang Mo Kio Town Garden East|1.37057100018187|103.850285996786|Junction of Ang Mo Kio Ave 3 and 8, behind Ang Mo Kio MRT Station|www.nparks.gov.sg/gardens-parks-and-nature/parks-and-nature-reserves/ang-mo-kio-town-garden-east
719020429F7BECFD|Holland Grove View Fitness Corner|1.31248299217226|103.782779005345|Along Holland Grove View|
DCD74FFF6BA84174|Sixth Avenue Playground|1.32243601665582|103.791281008483|Along Sixth Avenue|
CA1E86CCF0B4B07B|War Memorial Park|1.29282499699848|103.854818004778|Bounded by Nicoll Highway, Stamford Road, Beach Road and Bras Basah Road|www.nparks.gov.sg/gardens-parks-and-nature/parks-and-nature-reserves/war-memorial-park
F571533F1A656670|Beng Wan Road Playground|1.32380597927059|103.86583500031|Along Beng Wan Road|
ED401EE20873C3AB|Henry Park|1.31623499758018|103.783106005851|Along holland grove road|
5EA9119C5C096F48|River Valley Road / Clemenceau Avenue Open Space|1.29308999556797|103.84491500795|Bounded by River Valley Road and Clemenceau Avenue|
D5F6AA05F4EBB8F2|Ang Mo Kio Town Garden West|1.37402501376588|103.842887001241|Opposite Ang Mo Kio Town Library, along Ang Mo Kio Avenue 6|www.nparks.gov.sg/gardens-parks-and-nature/parks-and-nature-reserves/ang-mo-kio-town-garden-west
24E912B43EB95878|Mayfair Park|1.34139598931109|103.780895006173|Located along Jalan Gaharu|
069CCF717AF5088A|Guillemard Road Open Space|1.3145509896298|103.892397015046|Besides City Plaza towards Geylang Road|
E8D1D421BBAB98DB|Bangsawan Park|1.32120799539342|103.923837990533|Jalan Bangsawan|
F4FD697FF3D7BEB4|Eastwood Park Playground|1.32311502040416|103.957615982182|Between Eastwood Way and Bedok PCN|
C753D8230DE8A523|Watten Heights Playground|1.33170298432389|103.80898700707|Along Watten Estate Road|
4C9A125C82C49F0D|Grove Lane Playground|1.31376300928782|103.784206003929|Grove Lane, Grove Crescent and Grove Avenue|
53A5108956DD999A|Carpmael Road Open Space|1.31150200552321|103.898952005306|Along Carpmael Road▀ and Ceylon Road|
BFF845B255FD0BDE|Orchard Fountain Corner|1.30158700260588|103.837610994321|Junction of Grange Road and Orchard Road|
10230E7C94A5172E|Holland Village Park|1.31173000006272|103.795543995849|Junction of Holland Road and Holland Avenue|www.nparks.gov.sg/gardens-parks-and-nature/parks-and-nature-reserves/holland-village-park
AFF1460341FB3F9A|Waterboat House Garden|1.28732000560153|103.853473001627|Along Fullerton Road|
3A9F65E90F23A4FD|Rowell Road Open Space|1.30842200284088|103.854849|Along Rowell Rd|
FFEB8DC08F15C9DE|Youth Olympic Park|1.28848999572479|103.860638997467|Raffles Avenue. Junction of Raffles Avenue and Bayfront Bridge|www.nparks.gov.sg/gardens-parks-and-nature/parks-and-nature-reserves/youth-olympic-park
663619BA22257536|Greenwood Crescent Playground|1.33550601569391|103.805487000523|Along Greenwood crescent|
8467604070BF4B31|Berlayer Creek|1.27236499187616|103.802693003573|Behind Labrador Park MRT Station, 701 Telok Blangah Road|
FBF2CCADBB5BAF97|Kim Pong Park|1.28384500791232|103.829977001375|Along Kim Pong Road and Kim Tian Road|www.nparks.gov.sg/gardens-parks-and-nature/parks-and-nature-reserves/kim-pong-park
58741C149776580F|Novena Park|1.32231297895579|103.842813002418|Along Jalan Novena|
179D861B34F7D0F9|Golden Rise Playground|1.33632401782669|103.764869007062|Junction of Lorong Kismis and Toh Tuck Rise|
DB0C82B620ED0B07|Lembu Road Open Space|1.30975899721142|103.854776006135|Along Lembu Road|
E472D9BDFF470AB7|Hoover Park|1.34386298455144|103.773039987989|Along Lorong Pisang Batu|
346A2DD6DADE8CD8|Tanjong Katong Road South Playground|1.30017400290536|103.89732200163|Along Tg Katong Road South|
B3CDBBD33E9E5638|Jalan Kebaya Playground|1.31411501669973|103.780245998799|junction of Jln Kebaya and Holland Grove Ave|
1C58B562BCE93BB3|Shelford Road Playground|1.32834400830712|103.810509002674|Junction of Watten Rise and Shelford Road|
A8E6BEBC85BB54D1|Malcolm Park|1.32298701214919|103.827057999456|Along Malcolm Rd and Whiteley Rd|
99BE2CEDB1A1BFA8|The Foothills Fort Canning Park|1.29225799342141|103.84569099786|Along River Valley Road, opposite Liang Court|
2399BFAA54288753|MacPherson Linear Park|1.33379800164764|103.881706014162|A linear park between Blk 20, Joo Seng Road and MacPherson Road in MacPherson Garden Estate. Also a transitional zone for commuters in industrial areas and for transport purposes.|
0FF74BF951ED6729|Ganges Avenue Open Space|1.29075999254776|103.83179800761|Along Ganges Avenue|
740DB9D7A2814784|Chempaka Avenue Playground|1.33187400889662|103.875615995335|Chempaka Avenue, Sennett Estate|
79C5841226829C46|Geylang East Park|1.32177198800448|103.887658999231|Besides Geylang East Swimming Complex along Aljunied Ave 1|
D3CA7E673B90B48F|Fort Canning Park|1.29177800435869|103.846609005448|Fort Canning Park is bounded by Hill Street, Canning Rise, Clemenceau Avenue and River Valley Road|www.nparks.gov.sg/gardens-parks-and-nature/parks-and-nature-reserves/fort-canning-park
8C0F232B46BD112E|Changi Beach Park|1.38340098971507|104.001675008726|Along Nicoll Drive and Changi Coast Road|www.nparks.gov.sg/gardens-parks-and-nature/parks-and-nature-reserves/changi-beach-park
811AD50F8608532A|Jalan Chempaka Kuning Playground|1.32974601652478|103.950168022101|Jalan Chempaka Kuning|
59814E4B09F6FE7C|Saraca Road Playground|1.38594300243715|103.858757994618|Junction of Saraca Rd & Saraca Drive|
B913153879777CA2|Mimosa Walk Playground|1.38310499948583|103.861459991791|Located along Mimosa Walk|
FD3CD16FF0D16269|Mera Terrace Playground|1.34740400583367|103.963506003857|Seagull Ave|
73EB6C1271B1DC36|Jalan Angin Laut Playground|1.33718398610323|103.956225002141|Jalan Angin Laut|
9BE4069974834C80|Sunrise Drive Playground 2|1.39030101988892|103.855252008289|Located along Sunrise Drive|
166C60CDAE11A5FE|Lentor Road Playground|1.38829201020433|103.837572008652|Junction of Lentor Road and Lentor Loop|
41ED0CEE6A43FA08|Pasir Ris Park|1.37868402178859|103.952173012299|Pasir Ris Park stretches from Pasir Ris Road to Jalan Loyang Besar and can be accessed through Elias Road and Pasir Ris Green|www.nparks.gov.sg/gardens-parks-and-nature/parks-and-nature-reserves/pasir-ris-park
16E8EE8751EDE02C|Loyang View Playground|1.36303900201943|103.965636997663|Loyang view|
FF174AC2E0F7B7EE|Jalan Buloh Perindu Playground|1.30848299814914|103.919383992137|Bounded by Jln Buloh Perindu and Keris Drive|
DA05434EA9991889|Tanah Merah Playground|1.32902900416768|103.94687600443|Tanah Merah Kechil Ave|
2CE34B8946F4115F|Luxus Hills Park|1.37949200292749|103.875185997533|Junction of Ang Mo Kio Ave 5 and Yio Chu Kang Road|
DA9218CFEB990E1B|Banyan Villas Playground|1.38725001009072|103.838825995108|Junction of Lentor Road and Lentor Plains|
CC2570746FC5DF0A|Taman Kembangan Playground|1.32500301174325|103.914401992508|Along Taman Selamat and Taman Kembangan|
E2E2592EB83AD7F2|Jalan Limau Manis Playground|1.32472798680362|103.949047986876|Junction of Jalan Limau Nipis and Jalan Limau Manis|
DDA293041C8C4401|Richards Avenue Park|1.36092898756718|103.882129005066|Along Richards Ave|
B46F9A64955BD430|Lorong Tanggam Park|1.39903502830064|103.873847999194|Lorong Tanggam|
CA4851EDE75AEDFE|Bougainvillea Park|1.32671600556136|103.807658003097|Junction of Dunearn Road and Watten Drive|
B12A777F24E41F01|Holland Green Playground|1.32686097997825|103.782814007566|End of Holland Green road|
61388BE2BB2E2435|North Bridge Garden|1.30410899340616|103.862146001865|Along North bridge Road|
F83007523ABDA15B|Istana Park|1.29926400300755|103.843838993634|Bounded by Orchard Road, Penang Road, Penang Lane and Buyong Road.|www.nparks.gov.sg/gardens-parks-and-nature/parks-and-nature-reserves/istana-park
C45A8A635B5C3F8B|Toa Payoh Town Park|1.33057999366942|103.847968006121|Junction of Toa Payoh Lor 2 and Toa Payoh Lor 6|www.nparks.gov.sg/gardens-parks-and-nature/parks-and-nature-reserves/toa-payoh-town-park
00FD96AE03E7E4EA|Kim Seng Park|1.29283999640308|103.834956997814|Entrance via River Valley Green|
C08AFFA29839130C|Mount Sinai Plain Playground|1.3157090147631|103.78122199104|mount sinai plain, mount sinai crescent|
00CFA46FDF491EDD|Thomson Park|1.35429099006295|103.834364003112|along Jalan Sembilang Road|
A98C186F51D9414E|Holland Grove View Playground|1.31295098590754|103.781229998572|Along Holland Grove View|
9D21F9CFC0C0E487|Dhoby Ghaut Green|1.29834300751732|103.845882003067|Adjacent to Dhoby Ghaut MRT Station, opposite the Park Mall Shopping Centre|www.nparks.gov.sg/gardens-parks-and-nature/parks-and-nature-reserves/dhoby-ghaut-green
043225DC16008504|Mount Emily Park|1.30449799629073|103.847462000956|Along Mt Emily Rd and Upper Wilkie Rd|
8BD1CD702AE3F9F7|Kallang Riverside Park|1.30578700601773|103.866978993095|Along Kallang Road, Stadium Road and Crawford Street|www.nparks.gov.sg/gardens-parks-and-nature/parks-and-nature-reserves/kallang-riverside-park
584CB62EF1ED852B|Empress Place|1.2868239938791|103.851956991278|Entrance via Empress Place|
D96EF1306309FB7E|Mount Faber Park|1.27528100835684|103.818222000624|Junction of Kampong Bahru Road and Telok Blangah Road|www.nparks.gov.sg/gardens-parks-and-nature/parks-and-nature-reserves/mount-faber-park
E4658AB7BFDC0DB5|East Coast Park|1.30316900590952|103.920605001614|Along East Coast Parkway and East Coast Park Service Road|
B8289869042E85E1|Limau Garden Playground|1.3224530006075|103.950772994504|Junction of Limau Garden and Salam Walk|
FBEBA0B887452AE6|Meragi Road Playground|1.34438300662538|103.960282983203|Meragi Road|
828FD782D8A57226|Realty Park Playground|1.367302019013|103.889831987144|Along Lor 1 Realty Park|
682A4F3AC560CD9B|Pasir Ris Town Park|1.37168999463144|103.952377989422|Along Pasir Ris Central, Opposite Pasir Ris MRT Station|
804F060931653541|Bedok Ria Crescent Playground|1.3274170012123|103.953081982587|Between Bedok Ria Crescent and Bedok PCN|
408D16EA6460027C|Coronation Park Playground|1.32202599013522|103.796399992559|Junction of Jalan Hagi Alias and Coronation Road West|
AF2C2058DC5E9B57|The Inglewood Playground|1.36101398325524|103.830173997508|Along the Inglewood|
A1D39EA678EDFFFA|Duchess Park|1.32428998877263|103.805479000604|Along Duchess Avenue|
B1F341352F20F9F9|Clover Crescent Playground|1.35106199585901|103.844621998074|Along Clover Crescent and Clover Ave|
ACAB3D6A3F7E02FE|Binchang Rise Playground|1.34867398297342|103.843547994579|At the end of Binchang Rise|
AEFDE6CC600E00FB|Taman Permata Park|1.35015599579781|103.835175010264|Along Upper Thomson Road|
74CC369AA90F4995|Hua Guan Crescent Playground|1.33701100440066|103.785060002552|Located along Hua Guan Crescent|
3621026BD1D211A3|Central Catchment Nature Reserve|1.37730497383028|103.805473991222|601 Island Club Road (Located close to Singapore Island Country Club, via Venus Drive )|www.nparks.gov.sg/gardens-parks-and-nature/parks-and-nature-reserves/central-catchment-nature-reserve
C0F24BDD65199A53|Siang Kuang Avenue Interim Park|1.32972099363571|103.873050010599|Siang Kuang Avenue, Sennett Estate|
84145C82116A130E|Somme Road Playground|1.31148401066078|103.858152000653|Along Petain Rd and Kitchener Link|
C73F1EE0BEE9D1B4|Stamford Green|1.29571699496852|103.848860995111|Bounded by Canning Rise and Stamford Road; Next to National Museum of Singapore|
D2871F4E89CF3AEF|King's Drive  Playground|1.31910999951731|103.806055991416|junction of king's road and king's drive|
382980E5C992C4D6|University Road Park|1.32545199692878|103.817665995097|At the end of University Walk|
E3D8EBD783D3B367|Greenleaf View Park Playground|1.32228801135119|103.788076003791|At the end of Greenleaf View|
AFBB1AAB4CEF1004|Chestnut Nature Park|1.37097156701338|103.78083740117|Located along Chestnut Avenue and is abutting Central Catchment Nature Reserve, stretches along BKE, from Gali Batu Flyover to Dairy Farm Flyover., PUB Waterworks is situated at the end of Chestnut Avenue, demarking the access road across the middle of Chestnut Nature Park.|www.nparks.gov.sg/gardens-parks-and-nature/parks-and-nature-reserves/chestnut-nature-park
07CFE6567539200A|Telok Ayer Green|1.28146500698614|103.847644002876|Bounded by Amoy Street, Boon Tat Street and Telok Ayer Street|
B01AE2FF8B58F5CA|Mayflower Crescent Playground|1.3727180131601|103.839569003072|At the junction of Mayflower Crescent and Mayflower Avenue|
66086C14E8DACE2D|Sunrise Drive Playground 1|1.38830597203414|103.857369999308|Located along Sunrise Drive|
8B06ED4574E90FC9|Elias Terrace Playground|1.37219001582779|103.941093992579|Junction of Elias Terrace and Elias Green|
E3FD62E109D01A9C|Kew Avenue Playground|1.32162700448726|103.948451009513|Junction of Kew Avenue and Kew Drive|
8B896BD1155428FB|Greenfield Drive Playground|1.31303499211434|103.917655996762|Greenfield Drive|
5BBA8A8EB630BA01|Sun Plaza Park|1.359264023047|103.944481988262|Along Tampines Avenue 7, Tampines Avenue 9|www.nparks.gov.sg/gardens-parks-and-nature/parks-and-nature-reserves/sun-plaza-park
AA9DDE6381971B22|Changi Point Ferry Terminal|1.39122600073616|103.987296000544|Near Lor Bekukong|
FF16ED3C3767BD2C|Shangri-La Playground|1.37102098159919|103.832391997745|Junction of Ang Mo Kio Ave 2 and Jalan Lanjut|
AD2BA4AF1306E38A|Opera Estate Football Field|1.32010101002963|103.924455991866|Swan Lake Avenue|
00D14D4E70684188|Lentor Vale Playground|1.3880540162578|103.836146008453|Junction of Lentor Vale and Lentor Way|
D2D5F65DB241AD6D|Limau Villas Playground|1.32385199809351|103.950394989304|End of Limau Terrace from Jalan Langgar Bedok|
533A17097CE72D63|Paya Lebar Crescent Open Space|1.34896701230879|103.883569003858|Central open space at round about along Paya lebar cresent (road)|
03F3E458EBEEFCEC|Mugliston Park Playground|1.38544598318684|103.87790599596|Junction of Gerald Drive & Mugliston Park|
4894713B31B66C67|Sungei Api Api Park|1.37873299431662|103.9456669951|Entrance via Pasir Ris Drive 3, Riverina View and Elias Road|
4BD7AB1ED2B7588F|Yio Chu Kang Gardens Playground|1.3806810080854|103.837486998981|Turn right after Yio Chu Kang estate entrance|
4B8A3DF67A51E9DA|Tampines Eco Green|1.36391499068087|103.948689980155|Tampines Avenue 9 and Tampines Avenue 12|www.nparks.gov.sg/gardens-parks-and-nature/parks-and-nature-reserves/tampines-eco-green
78C61210DF1CC17B|Mimosa Terrace Playground|1.38405000123823|103.860449992285|Located along Mimosa Rd|
F61B266734F722E2|Neram Crescent Playground|1.38558901364397|103.865743999885|Neram Crescent|
554EFA4C1308DF81|Changi Point Waterfront Park|1.39064700115984|103.98808900299|Near Lor Bekukong|
B1967F93364DFF89|Aida Park|1.31938000337146|103.927926997004|Between Bedok South Road and Aida Street|
5849B290D7DCE062|Tai Keng Gardens Playground|1.34607100763102|103.884997993848|A garden with hill top flanked by Jalan Lokam (Road), Tai keng Lane and Tai keng Garden (Road)|
A7BB1BF496807A8B|Realty Park|1.36796366154687|103.890364510014|Along Hougang Ave 4|
5FEA22BCC48153DA|Changi Point Promenade|1.39017201315715|103.989190007291|Near Lor Bekukong|
ACBC9E152D19BD06|Aroozoo Avenue Playground|1.35519602028456|103.885954996071|Bounded by Aroozoo Ave and Jalan Mastuli|
43A081292A7AE024|St. Anne's Wood Playground|1.3916400007576|103.903735985364|Inside the private housing estate at St Anne's Wood|
7FFC95EC84EF2F0F|Bedok Terrace Playground|1.32553400234434|103.947489983993|Between Bedok Rise and Bedok Terrace|
